[
    {
        "id":1,
        "position":{"lat":16.991497447564285,"lng":82.24159924373555},
        "church_name":"Beersheba",
        "address":"opp spencers, near boatclub park, Kakinada, Andhra Pradesh 533005",
        "path":"/locations/beershebaChurch", 
        "mapsLink":"https://www.google.com/maps/dir//X6RR%2BHJG+Beersheba+Church,+National+Highway+214,+Ramanayapeta,+Kakinada,+Andhra+Pradesh+533005/@16.9914469,82.2393957,17z/data=!4m9!4m8!1m0!1m5!1m1!1s0x3a382848d6cf4977:0x61ba3b81a4791f78!2m2!1d82.2415506!2d16.9914589!3e0"
    },
    {
        "id":2,
        "position":{"lat": 17.010987617672033, "lng": 82.23527481285089},
        "church_name":"House of Beatitudes",
        "address":"near krishna temple, Panasapadu, Andhra Pradesh 533005",
        "path":"",
        "mapsLink":""
    },
    {
        "id":3,
        "position":{"lat": 16.9342214, "lng": 82.2260906},
        "church_name":"Bethel",
        "address":"near Annam Ghati Centre, Turangi, Kakinada, Andhra Pradesh 533002",
        "path":"",
        "mapsLink":""
        
    },
    {
        "id":4,
        "position":{"lat": 16.961614, "lng": 82.240869},
        "church_name":"Elim",
        "address":"Recharlapeta, Shanti Nagar, Kakinada, Andhra Pradesh 533003",
        "path":"",
        "mapsLink":""
        
    },
    {
        "id":5, 
        "position":{"lat": 17.026216961623174, "lng": 82.1341277534029},
        "church_name":"Bethany",
        "address":"near saibaba temple, Vetlapalem, Andhra Pradesh 533434",
        "path":"",
        "mapsLink":""
        
    },
    {
        "id":6,  
        "position":{"lat": 16.831556, "lng": 82.033139},
        "church_name":"New Jerusalem",
        "address":"Ramachendrapuram, Konaseema Dist.,Andhra Pradesh 533255",
        "path":"",
        "mapsLink":""
        
    },
    {
        "id":7,
        "position":{"lat": 17.551250, "lng": 82.227111},
        "church_name":"Rehaboth",
        "address":"backside of ICDS Office, 99 buildings road, Rajavommangi,Allurisitharamaraju Dist., Andhra Pradesh 533436",
        "path":"",
        "mapsLink":""
        
    },
    {
        "id":8, 
        "position":{"lat": 17.597387637408804, "lng": 82.27381504125351},
        "church_name":"shakeem",
        "address":"Sarabhavaram,Rajavommangi Mandal, East Godavari,Andhra Pradesh 533430",
        "path":"",
        "mapsLink":""
        
    },
    {
        "id":9,  
        "position":{"lat": 17.56349620919514,  "lng": 82.2707389806713},
        "church_name":"Zion Church",
        "address":"Kondapalli Village, Rajavommangi Mandal, East Godavari,Andhra Pradesh 533430",
        "path":"",
        "mapsLink":""
        
    },
    {
        "id":10, 
        "position":{"lat": 17.53467060724217,  "lng": 82.28953619630768},
        "church_name":"Shalem",
        "address":"Kimiligedda, Rajavommangi Mandal, East Godavari,Andhra Pradesh 533430",
        "path":"",
        "mapsLink":""
        
    }
]